,Headlines,City,accented_city,latitude,longitude,countrycode,pop,cluster,x,y
0,Could Zika Reach New York City?,New York City,New York City,40.71427,-74.00597,US,8804190.0,0,-74.00597,40.71427
1,First Case of Zika in Miami Beach,Miami Beach,Miami Beach,25.79065,-80.13005,US,92312.0,0,-80.13005,25.79065
2,"Mystery Virus Spreads in Recife, Brazil",Recife,Recife,-8.05389,-34.88111,BR,1653461.0,1,-34.88111,-8.05389
3,Dallas man comes down with case of Zika,Dallas,Dallas,32.78306,-96.80667,US,1300092.0,0,-96.80667,32.78306
4,Trinidad confirms first Zika case,Trinidad,Trinidad,-14.83333,-64.9,BO,84259.0,0,-64.9,-14.83333
5,Zika Concerns are Spreading in Houston,Houston,Houston,29.76328,-95.36327,US,2304580.0,0,-95.36327,29.76328
6,Geneve Scientists Battle to Find Cure,Geneve,Genève,46.20222,6.14569,CH,183981.0,2,6.14569,46.20222
7,The CDC in Atlanta is Growing Worried,Atlanta,Atlanta,33.749,-84.38798,US,463878.0,0,-84.38798,33.749
8,Zika Infested Monkeys in Sao Paulo,Sao Paulo,São Paulo,-23.5475,-46.63611,BR,12400232.0,1,-46.63611,-23.5475
9,Brownsville teen contracts Zika virus,Brownsville,Brownsville,25.90175,-97.49748,US,183887.0,0,-97.49748,25.90175
10,Mosquito control efforts in St. Louis take new tactics with Zika threat,St. Louis,St. Louis,38.62727,-90.19789,US,315685.0,0,-90.19789,38.62727
11,San Juan reports 1st U.S. Zika-related death amid outbreak,San Juan,San Juan,18.46633,-66.10572,PR,418140.0,0,-66.10572,18.46633
12,"Flu outbreak in Galveston, Texas",Galveston,Galveston,29.30135,-94.7977,US,50180.0,0,-94.7977,29.30135
13,Zika alert - Manila now threatened,Manila,Manila,14.6042,120.9822,PH,1600000.0,3,120.9822,14.6042
14,Zika afflicts 7 in Iloilo City,Iloilo,Iloilo,10.69694,122.56444,PH,387681.0,3,122.56444,10.69694
15,New Los Angeles Hairstyle goes Viral,Los Angeles,Los Angeles,34.05223,-118.24368,US,3898747.0,0,-118.24368,34.05223
17,Orlando volunteers aid Zika research,Orlando,Orlando,28.53834,-81.37924,US,307573.0,0,-81.37924,28.53834
19,Chicago's First Zika Case Confirmed,Chicago,Chicago,41.85003,-87.65005,US,2696555.0,0,-87.65005,41.85003
20,Tampa Bay Area Zika Case Count Climbs,Tampa,Tampa,27.94752,-82.45843,US,384959.0,0,-82.45843,27.94752
21,"Bad Water Leads to Sickness in Flint, Michigan",Flint,Flint,43.01253,-83.68746,US,98310.0,0,-83.68746,43.01253
22,Baltimore plans for Zika virus,Baltimore,Baltimore,39.29038,-76.61219,US,576498.0,0,-76.61219,39.29038
23,London Health Unit Tracks Mad Cow Disease,London,London,51.50853,-0.12574,GB,8961989.0,2,-0.12574,51.50853
24,Zika cases in Vietnam's Ho Chi Minh City surge,Ho Chi Minh City,Ho Chi Minh City,10.82302,106.62965,VN,8993082.0,3,106.62965,10.82302
25,Philadelphia experts track pandemic,Philadelphia,Philadelphia,39.95238,-75.16362,US,1576251.0,0,-75.16362,39.95238
26,Flu season hits Boston,Boston,Boston,42.35843,-71.05977,US,675647.0,0,-71.05977,42.35843
27,Scientists in Paris to look for answers,Paris,Paris,48.85341,2.3488,FR,2138551.0,2,2.3488,48.85341
28,Key Zika Findings in San Diego Institute,San Diego,San Diego,32.71571,-117.16472,US,1394928.0,0,-117.16472,32.71571
29,Thailand-Zika Virus in Bangkok,Bangkok,Bangkok,13.75398,100.50144,TH,5104476.0,3,100.50144,13.75398
30,Beijing team cracks Zika secret,Beijing,Beijing,39.9075,116.39723,CN,18960744.0,-1,116.39723,39.9075
31,Zika spreading to Salvador,Salvador,Salvador,-12.97563,-38.49096,BR,2711840.0,1,-38.49096,-12.97563
32,Kuala Lumpur is Hit By Zika Threat,Kuala Lumpur,Kuala Lumpur,3.1412,101.68653,MY,1453975.0,3,101.68653,3.1412
33,First Zika case confirmed in Yangon,Yangon,Yangon,16.80528,96.15611,MM,4477638.0,3,96.15611,16.80528
34,Tallahassee Doctors Discuss Zika Virus,Tallahassee,Tallahassee,30.43826,-84.28073,US,189907.0,0,-84.28073,30.43826
35,Zika Virus Reaches San Francisco,San Francisco,San Francisco,37.77493,-122.41942,US,864816.0,0,-122.41942,37.77493
36,New Vaccine on Trial in Bethesda District,Bethesda,Bethesda,38.98067,-77.10026,US,60858.0,0,-77.10026,38.98067
37,Townsville Zika tests inconclusive,Townsville,Townsville,-19.26639,146.80569,AU,180820.0,4,146.80569,-19.26639
38,Mandaluyong City under Siege by Virus,Mandaluyong City,Mandaluyong City,14.5832,121.0409,PH,425758.0,3,121.0409,14.5832
39,Hepatitis E re-emerges in Santa Rosa,Santa Rosa,Santa Rosa,14.31222,121.11139,PH,216650.0,3,121.11139,14.31222
40,Zika worries in San Salvador,San Salvador,San Salvador,13.68935,-89.18718,SV,525990.0,0,-89.18718,13.68935
41,Zika virus reported in Cleveland,Cleveland,Cleveland,41.4995,-81.69541,US,388072.0,0,-81.69541,41.4995
42,More Zika patients reported in Austin,Austin,Austin,30.26715,-97.74306,US,931830.0,0,-97.74306,30.26715
43,"Zika outbreak in Piracicaba, Brazil",Piracicaba,Piracicaba,-22.72528,-47.64917,BR,407252.0,1,-47.64917,-22.72528
44,Lima tries to address Zika Concerns,Lima,Lima,-12.04318,-77.02824,PE,7737002.0,0,-77.02824,-12.04318
45,More people in Toronto are infected with Hepatitis E every year,Toronto,Toronto,43.70011,-79.4163,CA,2600000.0,0,-79.4163,43.70011
46,18 new Zika Cases in Bogota,Bogota,Bogotá,4.60971,-74.08175,CO,7674366.0,0,-74.08175,4.60971
48,Brisbane is infested with Meningitis,Brisbane,Brisbane,-27.46794,153.02809,AU,2582007.0,4,153.02809,-27.46794
49,Cholera outbreak in Dakar,Dakar,Dakar,14.6937,-17.44406,SN,2476400.0,5,-17.44406,14.6937
50,Zika Virus Transmission Detected in Havana,Havana,Havana,23.13302,-82.38304,CU,2163824.0,0,-82.38304,23.13302
51,Zika symtomps spotted in Key West,Key West,Key West,24.55524,-81.78163,US,25755.0,0,-81.78163,24.55524
52,Case of Measles Reported in Vancouver,Vancouver,Vancouver,49.24966,-123.11934,CA,600000.0,0,-123.11934,49.24966
53,"Seattle scientists get $500,000 grant to pursue Zika vaccine New 7:50 pm",Seattle,Seattle,47.60621,-122.33207,US,737015.0,0,-122.33207,47.60621
54,Nashville takes precautions against Zika,Nashville,Nashville,36.16589,-86.78444,US,689447.0,0,-86.78444,36.16589
55,Saint Croix under Zika threat,Saint Croix,Saint Croix,17.72751,-64.74698,VI,50601.0,0,-64.74698,17.72751
56,Fort Collins Encounters Severe Symptoms of Gonorrhea,Fort Collins,Fort Collins,40.58526,-105.08442,US,161175.0,0,-105.08442,40.58526
57,"Zika surfaces in Klang, Malaysia",Klang,Klang,3.03667,101.44333,MY,879867.0,3,101.44333,3.03667
58,Rumors about Meningitis spreading in Guatemala City have been refuted,Guatemala City,Guatemala City,14.64072,-90.51327,GT,994938.0,0,-90.51327,14.64072
59,Madison lab developing vaccine against Zika virus [The Wisconsin State Journal],Madison,Madison,43.07305,-89.40123,US,248951.0,0,-89.40123,43.07305
60,New Zika Case Confirmed in Sarasota County,Sarasota,Sarasota,27.33643,-82.53065,US,55118.0,0,-82.53065,27.33643
61,Lower Hospitalization in Entebbe after Rabies Vaccine becomes Mandatory,Entebbe,Entebbe,0.05621,32.47949,UG,62969.0,6,32.47949,0.05621
63,Second Zika Paitient in Brasilia,Brasilia,Brasília,-15.77972,-47.92972,BR,2207718.0,1,-47.92972,-15.77972
64,Jacksonville man hit by Zika,Jacksonville,Jacksonville,30.33218,-81.65565,US,954614.0,0,-81.65565,30.33218
65,Schools in Shenzhen Closed Due to Malaria Outbreak,Shenzhen,Shenzhen,22.54554,114.0683,CN,17494398.0,3,114.0683,22.54554
66,Caracas patient dies,Caracas,Caracas,10.48801,-66.87919,VE,3000000.0,0,-66.87919,10.48801
67,More Quezon City Zika Transmissions,Quezon City,Quezon City,14.6488,121.0509,PH,2761720.0,3,121.0509,14.6488
68,Schools in Sydney Closed Due to Respiratory Syncytial Virus Outbreak,Sydney,Sydney,-33.86785,151.20732,AU,5231147.0,4,151.20732,-33.86785
69,Mumbai's Health Minister warns of more Zika cases,Mumbai,Mumbai,19.07283,72.88261,IN,12691836.0,7,72.88261,19.07283
70,Pune woman diagnosed with Zika,Pune,Pune,18.51957,73.85535,IN,3124458.0,7,73.85535,18.51957
71,Hospitals in Hanoi fill up with Zika patients,Hanoi,Hanoi,21.0245,105.84117,VN,8053663.0,3,105.84117,21.0245
73,Authorities are Worried about the Spread of Bronchitis in Silver Spring,Silver Spring,Silver Spring,38.99067,-77.02609,US,71452.0,0,-77.02609,38.99067
74,Zika: Delhi for strict monitoring,Delhi,Delhi,28.65195,77.23149,IN,10927986.0,7,77.23149,28.65195
75,Hillsborough uses innovative trap against Zika 20 minutes ago,Hillsborough,Hillsborough,40.4776,-74.62682,US,38303.0,0,-74.62682,40.4776
76,Belize City under threat from Zika,Belize City,Belize City,17.49952,-88.19756,BZ,61461.0,0,-88.19756,17.49952
77,"Student sick in Campinas, Brazil",Campinas,Campinas,-22.90556,-47.06083,BR,1031554.0,1,-47.06083,-22.90556
78,More Zika cases in Soyapango,Soyapango,Soyapango,13.71024,-89.13989,SV,329708.0,0,-89.13989,13.71024
79,Authorities are Worried about the Spread of Mad Cow Disease in Rome,Rome,Rome,41.89193,12.51133,IT,2318895.0,2,12.51133,41.89193
80,Seoul confirms 14th Zika infection,Seoul,Seoul,37.566,126.9784,KR,10349312.0,3,126.9784,37.566
81,Hepatitis B Vaccine is now Required in Quebec,Quebec,Québec,46.81228,-71.21454,CA,531902.0,0,-71.21454,46.81228
82,Zika outbreak spreads to Mexico City,Mexico City,Mexico City,19.42847,-99.12766,MX,12294193.0,0,-99.12766,19.42847
83,Rochester authorities confirmed the spread of Dengue,Rochester,Rochester,43.15478,-77.61556,US,209802.0,0,-77.61556,43.15478
84,El Paso fighting Zika,El Paso,El Paso,31.75872,-106.48693,US,681124.0,0,-106.48693,31.75872
85,Visitor to Cucuta contracts Zika,Cucuta,Cúcuta,7.89391,-72.50782,CO,777106.0,0,-72.50782,7.89391
86,Zika now spreading through Jakarta,Jakarta,Jakarta,-6.21462,106.84513,ID,8540121.0,3,106.84513,-6.21462
88,Salt Lake City tests new cure for Respiratory Syncytial Virus,Salt Lake City,Salt Lake City,40.76078,-111.89105,US,192672.0,0,-111.89105,40.76078
89,Zika San Antonio Patient Speaks Out,San Antonio,San Antonio,29.42412,-98.49363,US,1434625.0,0,-98.49363,29.42412
90,Ebola outbreak in Kampala,Kampala,Kampala,0.31628,32.58219,UG,1353189.0,6,32.58219,0.31628
91,Precautionary Zika measures in Rockhampton,Rockhampton,Rockhampton,-23.38032,150.50595,AU,78592.0,4,150.50595,-23.38032
92,Zika arrives in Tegucigalpa,Tegucigalpa,Tegucigalpa,14.0818,-87.20681,HN,850848.0,0,-87.20681,14.0818
93,New Zika Case Confirmed in Belo Horizonte,Belo Horizonte,Belo Horizonte,-19.92083,-43.93778,BR,2721564.0,1,-43.93778,-19.92083
94,Case of Hepatitis E Reported in Melbourne,Melbourne,Melbourne,-37.814,144.96332,AU,4917750.0,4,144.96332,-37.814
95,First Columbus Zika case,Columbus,Columbus,39.96118,-82.99879,US,905748.0,0,-82.99879,39.96118
96,New medicine wipes out Tuberculosis in Taipei,Taipei,Taipei,25.04776,121.53185,TW,7871900.0,3,121.53185,25.04776
97,"Zika Patient in Seminole, Florida",Seminole,Seminole,27.83975,-82.79121,US,18153.0,0,-82.79121,27.83975
98,Antipolo under threat from Zika Virus,Antipolo,Antipolo,14.62578,121.12251,PH,549543.0,3,121.12251,14.62578
99,Spreading Zika reaches Bacoor,Bacoor,Bacoor,14.45896,120.93851,PH,356974.0,3,120.93851,14.45896
100,Can Zika make it here to Vero Beach?,Can,Çan,40.03328,27.05236,TR,26201.0,-1,27.05236,40.03328
101,Zika afflicts patient in Calamba,Calamba,Calamba,14.21167,121.16528,PH,539671.0,3,121.16528,14.21167
102,Hollywood Outbreak Film Premieres,Hollywood,Hollywood,34.09834,-118.32674,US,167664.0,0,-118.32674,34.09834
103,Petaling Jaya man ill from Zika,Petaling Jaya,Petaling Jaya,3.10726,101.60671,MY,902086.0,3,101.60671,3.10726
104,Malaria is Spreading in Johannesburg,Johannesburg,Johannesburg,-26.20227,28.04363,ZA,5635127.0,8,28.04363,-26.20227
105,Authorities are Worried about the Spread of Norovirus in Buenos Aires,Buenos Aires,Buenos Aires,-34.61315,-58.37723,AR,2891082.0,1,-58.37723,-34.61315
106,Guangzhou Patient in Critical Condition after Contracting Swine Flu,Guangzhou,Guangzhou,23.11667,113.25,CN,16096724.0,3,113.25,23.11667
107,Doral hit by Deadly Virus,Doral,Doral,25.81954,-80.35533,US,75874.0,0,-80.35533,25.81954
108,Tokyo Encounters Severe Symptoms of Meningitis,Tokyo,Tokyo,35.6895,139.69171,JP,8336599.0,3,139.69171,35.6895
109,Rabies Exposure in Hamilton,Hamilton,Hamilton,43.25011,-79.84963,CA,519949.0,0,-79.84963,43.25011
110,Authorities are Worried about the Spread of Influenza in Savannah,Savannah,Savannah,32.08354,-81.09983,US,147780.0,0,-81.09983,32.08354
111,Zika Outbreak in Hyderabad,Hyderabad,Hyderabad,25.39689,68.37718,PK,1386330.0,7,68.37718,25.39689
112,Birmingham Residents Recieve Rabies vaccine,Birmingham,Birmingham,52.48142,-1.89983,GB,1144919.0,2,-1.89983,52.48142
113,Is Zika virus in Majuro?,Majuro,Majuro,7.08971,171.38027,MH,25400.0,-1,171.38027,7.08971
114,Spreading Zika ruining Cancun fun,Cancun,Cancún,21.17429,-86.84656,MX,628306.0,0,-86.84656,21.17429
115,Cancun hit by Outbreak of Party Fever!,Cancun,Cancún,21.17429,-86.84656,MX,628306.0,0,-86.84656,21.17429
116,HIV has Arrived in Fairfax,Fairfax,Fairfax,38.84622,-77.30637,US,24013.0,0,-77.30637,38.84622
117,Spanish Flu Outbreak in Barcelona,Barcelona,Barcelona,41.38879,2.15899,ES,1620343.0,2,2.15899,41.38879
118,Santa Barbara tests new cure for Hepatitis C,Santa Barbara,Santa Bárbara,7.81348,-71.17788,VE,45808.0,0,-71.17788,7.81348
119,Spring break ruined by Zika in Fort Lauderdale,Spring,Spring,30.07994,-95.41716,US,54298.0,0,-95.41716,30.07994
120,Villavicencio under Zika threat,Villavicencio,Villavicencio,4.142,-73.62664,CO,321717.0,0,-73.62664,4.142
121,Two more Zika cases confirmed in Laredo,Laredo,Laredo,27.50641,-99.50754,US,255473.0,0,-99.50754,27.50641
122,New Delhi Addressing Zika Concerns,New Delhi,New Delhi,28.63576,77.22445,IN,317797.0,7,77.22445,28.63576
123,"New Zika Case in Kota Kinabalu, Malaysia",Kota Kinabalu,Kota Kinabalu,5.9749,116.0724,MY,500421.0,3,116.0724,5.9749
124,New medicine wipes out West Nile Virus in Ventura,Ventura,Ventura,34.27834,-119.29317,US,96769.0,0,-119.29317,34.27834
125,Meningitis re-emerges in Nassau,Nassau,Nassau,25.05823,-77.34306,BS,227940.0,0,-77.34306,25.05823
126,"Zika reaches Johor Bahru, Malaysia",Johor Bahru,Johor Bahru,1.4655,103.7578,MY,858118.0,3,103.7578,1.4655
127,Nha Trang Zika Outbreak,Nha Trang,Nha Trang,12.24507,109.19432,VN,283441.0,3,109.19432,12.24507
128,First Zika Case in Cincinnati,Cincinnati,Cincinnati,39.12711,-84.51439,US,309317.0,0,-84.51439,39.12711
129,Molo Cholera Spread Causing Concern,Molo,Molo,-0.24849,35.73194,KE,27896.0,6,35.73194,-0.24849
130,Norovirus Exposure in Hong Kong,Hong Kong,Hong Kong,22.27832,114.17469,HK,7482500.0,3,114.17469,22.27832
131,19 new Zika Cases in Sengkang,Sengkang,Sengkang,-4.1279,120.0297,ID,59523.0,-1,120.0297,-4.1279
132,Zika cases concern Charlotte residents,Charlotte,Charlotte,35.22709,-80.84313,US,874579.0,0,-80.84313,35.22709
133,Batangas Tourism Takes a Hit as Virus Spreads,Batangas,Batangas,13.7567,121.0584,PH,237370.0,3,121.0584,13.7567
134,Johannesburg Patient in Critical Condition after Contracting Pneumonia,Johannesburg,Johannesburg,-26.20227,28.04363,ZA,5635127.0,8,28.04363,-26.20227
135,Outbreak of Zika in Bacolod City,Bacolod City,Bacolod City,10.66667,122.95,PH,454898.0,3,122.95,10.66667
136,Respiratory Syncytial Virus Keeps Spreading in Masaya,Masaya,Masaya,11.97444,-86.09417,NI,130113.0,0,-86.09417,11.97444
137,Spike of Pneumonia Cases in Springfield,Springfield,Springfield,37.21533,-93.29824,US,166810.0,0,-93.29824,37.21533
139,Zika case reported in Jupiter,Jupiter,Jupiter,26.93422,-80.09421,US,62707.0,0,-80.09421,26.93422
140,Zika virus confirmed in Westchester,Westchester,Westchester,25.75482,-80.32727,US,29862.0,0,-80.32727,25.75482
141,Authorities are Worried about the Spread of Tuberculosis in Abuja,Abuja,Abuja,9.05785,7.49508,NG,1235880.0,9,7.49508,9.05785
142,Rumors about Hepatitis D Spreading in San Juan Capistrano have been Refuted,San Juan Capistrano,San Juan Capistrano,33.50169,-117.66255,US,36454.0,0,-117.66255,33.50169
143,The Spread of Measles in Spokane has been Confirmed,Spokane,Spokane,47.65966,-117.42908,US,213272.0,0,-117.42908,47.65966
144,Zika alert for Rio Grande Valley residents,Rio Grande,Río Grande,-53.78769,-67.70946,AR,52681.0,-1,-67.70946,-53.78769
145,Zika symptoms spotted in Colombo,Colombo,Colombo,6.93548,79.84868,LK,648034.0,7,79.84868,6.93548
146,West Nile Virus Outbreak in Louisville,Louisville,Louisville,38.25424,-85.75941,US,243639.0,0,-85.75941,38.25424
147,New details in Baton Rouge cop killings,Baton Rouge,Baton Rouge,30.44332,-91.18747,US,228590.0,0,-91.18747,30.44332
148,Hepatitis B has not Left Florence,Florence,Florence,43.77925,11.24626,IT,367150.0,2,11.24626,43.77925
149,More Zika patients reported in Pensacola,Pensacola,Pensacola,30.42131,-87.21691,US,53193.0,0,-87.21691,30.42131
150,Outbreak of Zika in Corpus Christi,Corpus Christi,Corpus Christi,27.80058,-97.39638,US,326586.0,0,-97.39638,27.80058
151,How to Avoid Rhinovirus in Lemon Grove,Lemon Grove,Lemon Grove,32.74255,-117.03142,US,26709.0,0,-117.03142,32.74255
152,Rumors about Rotavirus spreading in Huntsville have been refuted,Huntsville,Huntsville,34.7304,-86.58594,US,215006.0,0,-86.58594,34.7304
153,Rhinovirus has Arrived in Athens,Athens,Athens,37.98376,23.72784,GR,664046.0,-1,23.72784,37.98376
154,Outbreak of Zika in Panama City,Panama City,Panama City,30.15946,-85.65983,US,38286.0,0,-85.65983,30.15946
156,Measles has not Left Brooklyn,Brooklyn,Brooklyn,40.6501,-73.94958,US,2736074.0,0,-73.94958,40.6501
157,Escondido neighborhood to get sprayed for Zika virus,Escondido,Escondido,33.11921,-117.08642,US,151451.0,0,-117.08642,33.11921
158,"Zika in Belmont, Belmont worry",Belmont,Belmont,37.52021,-122.2758,US,27218.0,0,-122.2758,37.52021
159,Influenza has not Left Sacramento,Sacramento,Sacramento,38.58157,-121.4944,US,490712.0,0,-121.4944,38.58157
160,Veracruz hit by Zika Concerns,Veracruz,Veracruz,19.18095,-96.1429,MX,428323.0,0,-96.1429,19.18095
161,Case of Mumps Reported in Dayton,Dayton,Dayton,39.75895,-84.19161,US,137644.0,0,-84.19161,39.75895
162,Authorities are Worried about the Spread of Dengue in Kingston,Kingston,Kingston,17.99702,-76.79358,JM,937700.0,0,-76.79358,17.99702
163,Gainesville Deals with Disease Concerns,Gainesville,Gainesville,29.65163,-82.32483,US,141085.0,0,-82.32483,29.65163
164,Montevideo Encounters Severe Symptoms of Rotavirus,Montevideo,Montevideo,-34.90328,-56.18816,UY,1270737.0,1,-56.18816,-34.90328
165,Varicella Keeps Spreading in Detroit,Detroit,Detroit,42.33143,-83.04575,US,677116.0,0,-83.04575,42.33143
166,Arhus is infested with Bronchitis,Arhus,Århus,56.15674,10.21076,DK,285273.0,2,10.21076,56.15674
167,Zika Troubles come to Niteroi,Niteroi,Niterói,-22.88333,-43.10361,BR,456456.0,1,-43.10361,-22.88333
168,Zika cases in Singapore reach 393,Singapore,Singapore,1.28967,103.85007,SG,5638700.0,3,103.85007,1.28967
169,Manhattan Residents Recieve HIV vaccine,Manhattan,Manhattan,40.78343,-73.96625,US,1487536.0,0,-73.96625,40.78343
170,Zika arrives in Miri,Miri,Miri,4.39928,113.99163,MY,300543.0,3,113.99163,4.39928
171,Rumors about Dengue Spreading in Syracuse have been Refuted,Syracuse,Syracuse,43.04812,-76.14742,US,144142.0,0,-76.14742,43.04812
172,Will Norovirus vaccine help Raleigh?,Raleigh,Raleigh,35.7721,-78.63861,US,451066.0,0,-78.63861,35.7721
173,Lower Hospitalization in Auckland after Hepatitis D Vaccine becomes Mandatory,Auckland,Auckland,-36.84853,174.76349,NZ,417910.0,-1,174.76349,-36.84853
174,How to Avoid Gonorrhea in Shreveport,Shreveport,Shreveport,32.52515,-93.75018,US,197204.0,0,-93.75018,32.52515
175,Ithaca is infested with Dengue,Ithaca,Ithaca,42.44063,-76.49661,US,30788.0,0,-76.49661,42.44063
176,Will MCD vaccine help Strasbourg?,Strasbourg,Strasbourg,48.58392,7.74553,FR,274845.0,2,7.74553,48.58392
177,New medicine wipes out Measles in Fresno,Fresno,Fresno,36.74773,-119.77237,US,520052.0,0,-119.77237,36.74773
178,BREAKING - Zika in Missoula,Missoula,Missoula,46.87215,-113.994,US,71022.0,0,-113.994,46.87215
179,Zika arrives in Santos,Santos,Santos,-23.96083,-46.33361,BR,433656.0,1,-46.33361,-23.96083
180,Sick Livestock Leads to Serious Trouble for Belfort,Belfort,Belfort,47.64218,6.85385,FR,54562.0,2,6.85385,47.64218
181,Hepatitis E has not Left Libreville,Libreville,Libreville,0.39241,9.45356,GA,578156.0,9,9.45356,0.39241
182,New medicine wipes out Chikungunya in Tucson,Tucson,Tucson,32.22174,-110.92648,US,531641.0,0,-110.92648,32.22174
183,Norovirus has Arrived in Winnipeg,Winnipeg,Winnipeg,49.8844,-97.14704,CA,749607.0,0,-97.14704,49.8844
184,Hepatitis B Comes to Kansas City,Kansas City,Kansas City,39.09973,-94.57857,US,475378.0,0,-94.57857,39.09973
185,More Patients in Cambridge are Getting Diagnosed with Chickenpox,Cambridge,Cambridge,52.2,0.11667,GB,145674.0,2,0.11667,52.2
186,Chikungunya Exposure in Toledo,Toledo,Toledo,41.66394,-83.55521,US,279789.0,0,-83.55521,41.66394
187,Is Lafayette prepared to combat Zika?,Lafayette,Lafayette,30.22409,-92.01984,US,127657.0,0,-92.01984,30.22409
188,Mecca tests new cure for Chikungunya,Mecca,Mecca,21.42664,39.82563,SA,1578722.0,10,39.82563,21.42664
189,Zika arrives in San Benito,San Benito,San Benito,16.91675,-89.91898,GT,30764.0,0,-89.91898,16.91675
190,Syphilis Outbreak in Harrisburg,Harrisburg,Harrisburg,40.2737,-76.88442,US,49081.0,0,-76.88442,40.2737
191,Zika Arrives in North Miami,North Miami,North Miami,25.89009,-80.18671,US,62435.0,0,-80.18671,25.89009
192,Urbana Encounters Severe Symptoms of Meningitis,Urbana,Urbana,40.11059,-88.20727,US,42311.0,0,-88.20727,40.11059
193,Pittsburgh Residents Recieve Norovirus vaccine,Pittsburgh,Pittsburgh,40.44062,-79.99589,US,304391.0,0,-79.99589,40.44062
194,Chikungunya Hits Denver,Denver,Denver,39.73915,-104.9847,US,715522.0,0,-104.9847,39.73915
195,Zika case recorded in Tunapuna >>,Tunapuna,Tunapuna,10.65245,-61.38878,TT,17758.0,0,-61.38878,10.65245
196,Spike of Respiratory Syncytial Virus Cases in Mandalay,Mandalay,Mandalay,21.97473,96.08359,MM,1208099.0,3,96.08359,21.97473
197,HIV Keeps Spreading in Boulder,Boulder,Boulder,40.01499,-105.27055,US,107349.0,0,-105.27055,40.01499
198,More Zika patients reported in Joao Pessoa,Joao Pessoa,João Pessoa,-7.115,-34.86306,BR,817511.0,1,-34.86306,-7.115
199,Will Tuberculosis vaccine help Rockville?,Rockville,Rockville,39.084,-77.15276,US,66980.0,0,-77.15276,39.084
200,Mad Cow Disease Re-emerges in Chatham,Chatham,Chatham,51.37891,0.52786,GB,75509.0,2,0.52786,51.37891
201,Zika Virus Arrives in Ontario,Ontario,Ontario,34.06334,-117.65089,US,171214.0,0,-117.65089,34.06334
202,Mad Cow Disease Hits Naples,Naples,Naples,40.85216,14.26811,IT,909048.0,2,14.26811,40.85216
203,More Zika patients reported in Davao,Davao,Davao,7.07306,125.61278,PH,1776949.0,3,125.61278,7.07306
204,The Spread of Chikungunya in Arcadia has been Confirmed,Arcadia,Arcadia,34.13973,-118.03534,US,58408.0,0,-118.03534,34.13973
205,Oxford tests new cure for HIV,Oxford,Oxford,51.75222,-1.25596,GB,162100.0,2,-1.25596,51.75222
206,Outbreak of Zika in Stephenville,Stephenville,Stephenville,32.2207,-98.20226,US,20120.0,0,-98.20226,32.2207
207,Providence Encounters Severe Symptoms of Dengue,Providence,Providence,41.82399,-71.41283,US,190934.0,0,-71.41283,41.82399
208,Tests negative on Windsor Zika carriers,Windsor,Windsor,42.30008,-83.01654,CA,278013.0,0,-83.01654,42.30008
209,Zika battle outlined at Valdosta meeting,Valdosta,Valdosta,30.83334,-83.28032,US,55724.0,0,-83.28032,30.83334
210,Zika case reported in Coral Gables,Coral Gables,Coral Gables,25.72149,-80.26838,US,51117.0,0,-80.26838,25.72149
211,Hepatitis C Outbreak in Danbury,Danbury,Danbury,41.39482,-73.45401,US,84657.0,0,-73.45401,41.39482
212,Chickenpox has Arrived in Chula Vista,Chula Vista,Chula Vista,32.64005,-117.0842,US,265757.0,0,-117.0842,32.64005
214,Will HIV vaccine help Las Vegas?,Las Vegas,Las Vegas,36.17497,-115.13722,US,623747.0,0,-115.13722,36.17497
215,Zika arrives in West Palm Beach,West Palm Beach,West Palm Beach,26.71534,-80.05337,US,106779.0,0,-80.05337,26.71534
216,Mobile authorities confirmed the spread of Bronchitis,Mobile,Mobile,30.69436,-88.04305,US,194288.0,0,-88.04305,30.69436
217,Zika spreads to Daytona Beach,Daytona Beach,Daytona Beach,29.21081,-81.02283,US,64736.0,0,-81.02283,29.21081
218,Lausanne Residents Recieve Meningitis vaccine,Lausanne,Lausanne,46.516,6.63282,CH,139111.0,2,6.63282,46.516
219,Rhinovirus Comes to San Jose,San Jose,San Jose,37.33939,-121.89496,US,1026908.0,0,-121.89496,37.33939
220,Spike of Chlamydia Cases in Farmington,Farmington,Farmington,36.72806,-108.21869,US,42871.0,0,-108.21869,36.72806
221,Authorities are Worried about the Spread of Rotavirus in Union,Union,Union,40.6976,-74.2632,US,56771.0,0,-74.2632,40.6976
222,Rumors about Hepatitis D spreading in Albany have been refuted,Albany,Albany,42.65258,-73.75623,US,98469.0,0,-73.75623,42.65258
223,Zika symptoms spotted in Bello,Bello,Bello,6.33732,-75.55795,CO,392939.0,0,-75.55795,6.33732
224,Will Meningitis vaccine help Hamburg?,Hamburg,Hamburg,53.55073,9.99302,DE,1845229.0,2,9.99302,53.55073
225,Madera Patient in Critical Condition after Contracting Rabies,Madera,Madera,36.96134,-120.06072,US,64208.0,0,-120.06072,36.96134
226,Zika Virus Detected in Lubbock,Lubbock,Lubbock,33.57786,-101.85517,US,249042.0,0,-101.85517,33.57786
227,Malaria re-emerges in Boise,Boise,Boise,43.6135,-116.20345,US,145987.0,0,-116.20345,43.6135
228,Varicella re-emerges in Lagos,Lagos,Lagos,6.45407,3.39467,NG,15388000.0,9,3.39467,6.45407
229,Vericella spreading in Ibadan,Ibadan,Ibadan,7.37756,3.90591,NG,3649000.0,9,3.90591,7.37756
230,Schools in Birmingham Closed Due to Measles Outbreak,Birmingham,Birmingham,52.48142,-1.89983,GB,1144919.0,2,-1.89983,52.48142
231,How to Avoid Hepatitis B in Waldorf,Waldorf,Waldorf,38.62456,-76.93914,US,67752.0,0,-76.93914,38.62456
234,Tuberculosis Outbreak in Newark,Newark,Newark,40.73566,-74.17237,US,281944.0,0,-74.17237,40.73566
235,Zika Virus Sparks 'International Concern',Sparks,Sparks,39.53491,-119.75269,US,96094.0,0,-119.75269,39.53491
236,Spike of Chlamydia Cases in Berlin,Berlin,Berlin,52.52437,13.41053,DE,3426354.0,2,13.41053,52.52437
237,Zika-carrying mosquitoes discovered in Ardmore,Ardmore,Ardmore,34.17426,-97.14363,US,25176.0,0,-97.14363,34.17426
238,"Zika Mosquitoes May Have Bred in Bromeliads, Florida Officials Say",Florida,Florida,21.52536,-78.22579,CU,63007.0,0,-78.22579,21.52536
239,More Livestock in Fontainebleau are infected with Mad Cow Disease,Fontainebleau,Fontainebleau,48.40908,2.70177,FR,19717.0,2,2.70177,48.40908
240,Frisco Woman Tests Positive For Zika Virus,Frisco,Frisco,33.15067,-96.82361,US,154407.0,0,-96.82361,33.15067
241,Authorities are Worried about the Spread of Norovirus in Dubai,Dubai,Dubai,25.07725,55.30927,AE,3478300.0,-1,55.30927,25.07725
242,Benton Residents Recieve Pneumonia vaccine,Benton,Benton,34.56454,-92.58683,US,34177.0,0,-92.58683,34.56454
243,Case of Hepatitis A Reported in Calgary,Calgary,Calgary,51.05011,-114.08529,CA,1019942.0,0,-114.08529,51.05011
244,Zika Outbreak in Pinewood,Pinewood,Pinewood,25.86898,-80.21699,US,16520.0,0,-80.21699,25.86898
245,Will Swine Flu vaccine help Ljubljana?,Ljubljana,Ljubljana,46.05108,14.50513,SI,272220.0,2,14.50513,46.05108
246,Bronchitis re-emerges in Tehran,Tehran,Tehran,35.69439,51.42151,IR,7153309.0,11,51.42151,35.69439
248,Mad Cow case in Murcia,Murcia,Murcia,37.98704,-1.13004,ES,460349.0,2,-1.13004,37.98704
249,Mad Cow Disease Spreads to Margate,Margate,Margate,51.38132,1.38617,GB,60134.0,2,1.38617,51.38132
250,Zika Strikes St. Petersburg,St. Petersburg,St. Petersburg,27.77086,-82.67927,US,257083.0,0,-82.67927,27.77086
252,Will the Mad Cow Outbreak Reach Vienna?,Vienna,Vienna,48.20849,16.37208,AT,1691468.0,2,16.37208,48.20849
253,More Patients in Orange are Getting Diagnosed with Chickenpox,Orange,Orange,33.78779,-117.85311,US,140992.0,0,-117.85311,33.78779
254,Lower Hospitalization in Richmond after Mumps Vaccine becomes Mandatory,Richmond,Richmond,37.55376,-77.46026,US,226610.0,0,-77.46026,37.55376
255,Meningitis re-emerges in Medina,Medina,Medina,24.46861,39.61417,SA,1300000.0,10,39.61417,24.46861
257,Four cases of Zika in Hidalgo County,Hidalgo,Hidalgo,25.97205,-100.45029,MX,16524.0,0,-100.45029,25.97205
258,Zika symptoms spotted in Hollywood,Hollywood,Hollywood,34.09834,-118.32674,US,167664.0,0,-118.32674,34.09834
259,Zika arrives in Oaxaca,Oaxaca,Oaxaca,17.06542,-96.72365,MX,255029.0,0,-96.72365,17.06542
260,More people in Durham are infected with Chlamydia every year,Durham,Durham,35.99403,-78.89862,US,257636.0,0,-78.89862,35.99403
261,Authorities are Worried about the Spread of Gonorrhea in Taoyuan City,Taoyuan City,Taoyuan City,24.99368,121.29696,TW,402014.0,3,121.29696,24.99368
262,Swine Flu re-emerges in La Jolla,La Jolla,La Jolla,32.84727,-117.2742,US,42808.0,0,-117.2742,32.84727
263,Tuberculosis Outbreak in Hartford,Hartford,Hartford,41.76371,-72.68509,US,121054.0,0,-72.68509,41.76371
264,Rumors about Mumps Spreading in New Bedford have been Refuted,New Bedford,New Bedford,41.63526,-70.92701,US,101079.0,0,-70.92701,41.63526
265,Respiratory Syncytial Virus Vaccine is now Required in Tulsa,Tulsa,Tulsa,36.15398,-95.99277,US,413066.0,0,-95.99277,36.15398
266,More people in Indianapolis are infected with Norovirus every year,Indianapolis,Indianapolis,39.76838,-86.15804,US,887642.0,0,-86.15804,39.76838
267,Lower Hospitalization in Dhaka after Measles Vaccine becomes Mandatory,Dhaka,Dhāka,26.67479,85.16698,IN,36111.0,7,85.16698,26.67479
268,Albany Residents Recieve Respiratory Syncytial Virus vaccine,Albany,Albany,42.65258,-73.75623,US,98469.0,0,-73.75623,42.65258
270,Rotavirus Vaccine is now Required in Starkville,Starkville,Starkville,33.45049,-88.81961,US,25366.0,0,-88.81961,33.45049
271,Schools in Yaounde Closed Due to Mumps Outbreak,Yaounde,Yaoundé,3.86667,11.51667,CM,1299369.0,9,11.51667,3.86667
272,More people in Nadi are infected with HIV every year,Nadi,Nadi,-17.80309,177.41617,FJ,42284.0,12,177.41617,-17.80309
273,Tocumen tests new cure for Hepatitis A,Tocumen,Tocumen,9.08939,-79.3831,PA,50844.0,0,-79.3831,9.08939
274,Phnom Penh hit by Zika Threat,Phnom Penh,Phnom Penh,11.56245,104.91601,KH,1573544.0,3,104.91601,11.56245
275,Zika Troubles come to Harlingen,Harlingen,Harlingen,26.19063,-97.6961,US,65774.0,0,-97.6961,26.19063
276,Zika spreads to Barranquilla,Barranquilla,Barranquilla,10.96854,-74.78132,CO,1206319.0,0,-74.78132,10.96854
277,Milwaukee authorities confirmed the spread of Rhinovirus,Milwaukee,Milwaukee,43.0389,-87.90647,US,600155.0,0,-87.90647,43.0389
278,Mad Cow Disease Hits Rotterdam,Rotterdam,Rotterdam,51.9225,4.47917,NL,598199.0,2,4.47917,51.9225
279,Zika symptoms spotted in Arlington,Arlington,Arlington,32.73569,-97.10807,US,388125.0,0,-97.10807,32.73569
280,West Nile Virus Hits Yogyakarta,Yogyakarta,Yogyakarta,-7.80139,110.36472,ID,373589.0,3,110.36472,-7.80139
281,More Patients in Dublin are Getting Diagnosed with Bronchitis,Dublin,Dublin,53.33306,-6.24889,IE,1024027.0,2,-6.24889,53.33306
282,Rumors about Tuberculosis Spreading in Baud have been Refuted,Baud,Baud,20.83773,84.32618,IN,18945.0,7,84.32618,20.83773
283,Rumors about West Nile Virus Spreading in Salem have been Refuted,Salem,Salem,11.65376,78.15538,IN,917414.0,7,78.15538,11.65376
284,St. Catharines Patient in Critical Condition after Contracting Dengue,St. Catharines,St. Catharines,43.17126,-79.24267,CA,133113.0,0,-79.24267,43.17126
286,More Zika patients reported in Camacari,Camacari,Camaçari,-12.6975,-38.32417,BR,188758.0,1,-38.32417,-12.6975
287,Outbreak of Zika in Pasig City,Pasig City,Pasig City,14.58691,121.0614,PH,617301.0,3,121.0614,14.58691
288,Zika Troubles come to Kampong Cham,Kampong Cham,Kampong Cham,11.99339,105.4635,KH,61750.0,3,105.4635,11.99339
289,Zika case reported in Rizal,Rizal,Rizal,15.7118,121.1061,PH,26201.0,3,121.1061,15.7118
290,Zika Spreads to Palm Beach Gardens,Palm Beach Gardens,Palm Beach Gardens,26.82339,-80.13865,US,52923.0,0,-80.13865,26.82339
291,More people in Saint Petersburg are infected with Varicella every year,Saint Petersburg,Saint Petersburg,59.93863,30.31413,RU,5351935.0,-1,30.31413,59.93863
292,Spike of Herpes Cases in Meriden,Meriden,Meriden,41.53815,-72.80704,US,59988.0,0,-72.80704,41.53815
293,Zika case reported in Abilene,Abilene,Abilene,32.44874,-99.73314,US,125182.0,0,-99.73314,32.44874
294,Outbreak of Zika in Palm Springs,Palm Springs,Palm Springs,33.8303,-116.54529,US,47371.0,0,-116.54529,33.8303
295,Halifax is infested with Swine Flu,Halifax,Halifax,44.64269,-63.57688,CA,439819.0,0,-63.57688,44.64269
296,Zika arrives in Natal,Natal,Natal,-5.795,-35.20944,BR,896708.0,1,-35.20944,-5.795
297,Herpes Keeps Spreading in Rochester,Rochester,Rochester,43.15478,-77.61556,US,209802.0,0,-77.61556,43.15478
298,Zika case reported in Phetchabun,Phetchabun,Phetchabun,16.41904,101.16056,TH,50656.0,3,101.16056,16.41904
299,How to Avoid Pneumonia in Bullhead City,Bullhead City,Bullhead City,35.14778,-114.5683,US,39445.0,0,-114.5683,35.14778
300,West Nile Virus re-emerges in Wellington,Wellington,Wellington,-41.28664,174.77557,NZ,381900.0,-1,174.77557,-41.28664
301,Rumors about Pneumonia spreading in Ottawa have been refuted,Ottawa,Ottawa,45.41117,-75.69812,CA,812129.0,0,-75.69812,45.41117
302,Meningitis re-emerges in Summerville,Summerville,Summerville,33.0185,-80.17565,US,48848.0,0,-80.17565,33.0185
303,Pneumonia Symptoms Spread all over Bloomington,Bloomington,Bloomington,44.8408,-93.29828,US,86435.0,0,-93.29828,44.8408
304,More Patients in Stuttgart are Getting Diagnosed with Rabies,Stuttgart,Stuttgart,48.78232,9.17702,DE,630305.0,2,9.17702,48.78232
305,Schools in Glasgow Closed Due to Hepatitis B Outbreak,Glasgow,Glasgow,55.86515,-4.25763,GB,626410.0,2,-4.25763,55.86515
306,Phoenix Residents Recieve Syphilis vaccine,Phoenix,Phoenix,33.44838,-112.07404,US,1608139.0,0,-112.07404,33.44838
308,Spanish flu spreading in Madrid,Madrid,Madrid,40.4165,-3.70256,ES,3255944.0,2,-3.70256,40.4165
309,Rabies Hits Madrid,Madrid,Madrid,40.4165,-3.70256,ES,3255944.0,2,-3.70256,40.4165
310,Zika Outbreak in Weslaco,Weslaco,Weslaco,26.15952,-97.99084,US,39474.0,0,-97.99084,26.15952
311,How to Avoid Chlamydia in Santiago,Santiago,Santiago,-33.45694,-70.64827,CL,4837295.0,-1,-70.64827,-33.45694
312,Rotavirus Vaccine is now Required in Las Cumbres,Las Cumbres,Las Cumbres,9.09211,-79.53895,PA,69102.0,0,-79.53895,9.09211
314,Mad Cow Outbreak Spreading in Ennis,Ennis,Ennis,52.84361,-8.98639,IE,25276.0,2,-8.98639,52.84361
315,Southampton Patient in Critical Condition after Contracting Tuberculosis,Southampton,Southampton,50.90395,-1.40428,GB,269781.0,2,-1.40428,50.90395
316,The Spread of Rhinovirus in Boardman has been Confirmed,Boardman,Boardman,41.02423,-80.66285,US,35376.0,0,-80.66285,41.02423
317,Richland Center is infested with Hepatitis B,Richland,Richland,46.28569,-119.28446,US,54248.0,0,-119.28446,46.28569
318,Authorities are Worried about the Spread of Chickenpox in Richmond,Richmond,Richmond,37.55376,-77.46026,US,226610.0,0,-77.46026,37.55376
319,Chikungunya re-emerges in Kobe,Kobe,Kobe,34.6913,135.183,JP,1522188.0,3,135.183,34.6913
320,Malaria Vaccine is now Required in Schenectady,Schenectady,Schenectady,42.81424,-73.93957,US,65305.0,0,-73.93957,42.81424
321,Hepatitis D has Arrived in Grenoble,Grenoble,Grenoble,45.17869,5.71479,FR,158552.0,2,5.71479,45.17869
322,West Nile Virus Symptoms Spread all over Yerevan,Yerevan,Yerevan,40.18111,44.51361,AM,1093485.0,11,44.51361,40.18111
323,Zika Outbreak in Sincelejo,Sincelejo,Sincelejo,9.30472,-75.39778,CO,277773.0,0,-75.39778,9.30472
324,Rumors about HIV spreading in Montpellier have been refuted,Montpellier,Montpellier,43.61093,3.87635,FR,248252.0,2,3.87635,43.61093
325,Praia tests new cure for Pneumonia,Praia,Praia,14.93152,-23.51254,CV,113364.0,5,-23.51254,14.93152
327,Lower Hospitalization in Lakewood after Hepatitis B Vaccine becomes Mandatory,Lakewood,Lakewood,39.70471,-105.08137,US,152597.0,0,-105.08137,39.70471
328,Zika spreads to Kuching,Kuching,Kuching,1.55,110.33333,MY,402738.0,3,110.33333,1.55
329,Spike of Rotavirus Cases in Omaha,Omaha,Omaha,41.25626,-95.94043,US,486051.0,0,-95.94043,41.25626
330,Tuberculosis re-emerges in Silver Springs,Springs,Springs,-26.25,28.4,ZA,186394.0,8,28.4,-26.25
331,Will West Nile Virus vaccine help Coronado?,Coronado,Coronado,32.68589,-117.18309,US,24812.0,0,-117.18309,32.68589
332,Zika case confirmed in Lorain,Lorain,Lorain,41.45282,-82.18237,US,63647.0,0,-82.18237,41.45282
333,Chickenpox Hits Simpsonville,Simpsonville,Simpsonville,34.73706,-82.25428,US,20736.0,0,-82.25428,34.73706
334,Framingham Residents Receive Measles vaccine,Framingham,Framingham,42.27926,-71.41617,US,68318.0,0,-71.41617,42.27926
335,Rumors about Mad Cow Disease Brighton have been Refuted,Brighton,Brighton,50.82838,-0.13947,GB,277103.0,2,-0.13947,50.82838
336,Zika case reported in Jacobina,Jacobina,Jacobina,-11.18143,-40.51372,BR,47637.0,1,-40.51372,-11.18143
337,Bridgeport authorities confirmed the spread of West Nile Virus,Bridgeport,Bridgeport,41.17923,-73.18945,US,147629.0,0,-73.18945,41.17923
339,Measles Vaccine is now Required in Wailuku,Wailuku,Wailuku,20.89133,-156.50604,US,15313.0,-1,-156.50604,20.89133
340,Zika symptoms spotted in Surat,Surat,Surat,21.19594,72.83023,IN,4591246.0,7,72.83023,21.19594
342,More contaminated cattle reported in Bedford,Bedford,Bedford,52.13459,-0.46632,GB,106940.0,2,-0.46632,52.13459
343,Zika in Tamarac!,Tamarac,Tamarac,26.21286,-80.24977,US,64681.0,0,-80.24977,26.21286
344,Will Measles vaccine help Milford?,Milford,Milford,41.22232,-73.0565,US,52759.0,0,-73.0565,41.22232
345,Spike of Norovirus Cases in Huddersfield,Huddersfield,Huddersfield,53.64904,-1.78416,GB,149017.0,2,-1.78416,53.64904
346,Rhinovirus Hits Bakersfield,Bakersfield,Bakersfield,35.37329,-119.01871,US,373640.0,0,-119.01871,35.37329
347,Lower Hospitalization in Papeete after Measles Vaccine becomes Mandatory,Papeete,Papeete,-17.5347,-149.56843,PF,26357.0,-1,-149.56843,-17.5347
348,Zika arrives in Udon Thani,Udon Thani,Udon Thani,17.41567,102.78589,TH,130531.0,3,102.78589,17.41567
349,Spike of Dengue Cases in Stockholm,Stockholm,Stockholm,59.32938,18.06871,SE,1515017.0,2,18.06871,59.32938
350,More people in Berkeley are infected with Swine Flu every year,Berkeley,Berkeley,37.87159,-122.27275,US,120972.0,0,-122.27275,37.87159
352,Zika only the latest mosquito-borne threat to New Orleans,New Orleans,New Orleans,29.95465,-90.07507,US,389617.0,0,-90.07507,29.95465
353,Will Swine Flu vaccine help Annapolis?,Annapolis,Annapolis,38.97859,-76.49184,US,39474.0,0,-76.49184,38.97859
354,Lower Hospitalization in Monroe after Hepatitis D Vaccine becomes Mandatory,Monroe,Monroe,32.50931,-92.1193,US,49598.0,0,-92.1193,32.50931
355,New medicine wipes out Dengue in Saginaw,Saginaw,Saginaw,43.41947,-83.95081,US,49347.0,0,-83.95081,43.41947
356,Spike of Rhinovirus Cases in Sevierville,Sevierville,Sevierville,35.86815,-83.56184,US,16490.0,0,-83.56184,35.86815
357,Duisburg up in Arms over Mad Cow Disease,Duisburg,Duisburg,51.43247,6.76516,DE,504358.0,2,6.76516,51.43247
358,New medicine wipes out Mumps in Saint Charles,Saint Charles,Saint Charles,38.78394,-90.48123,US,65794.0,0,-90.48123,38.78394
359,Case of Chikungunya Reported in Gaithersburg,Gaithersburg,Gaithersburg,39.14344,-77.20137,US,67456.0,0,-77.20137,39.14344
360,How to Avoid Respiratory Syncytial Virus in San Bernardino,San Bernardino,San Bernardino,34.10834,-117.28977,US,216108.0,0,-117.28977,34.10834
361,Laventille authorities confirmed the spread of Rhinovirus,Laventille,Laventille,10.64917,-61.49889,TT,21000.0,0,-61.49889,10.64917
362,More Zika patients reported in Waco,Waco,Waco,31.54933,-97.14667,US,132356.0,0,-97.14667,31.54933
363,Will Herpes vaccine help Newcastle?,Newcastle,Newcastle,-27.75796,29.9318,ZA,404838.0,8,29.9318,-27.75796
364,Erie County sets Zika traps,Erie,Erie,42.12922,-80.08506,US,99475.0,0,-80.08506,42.12922
366,How to Avoid Norovirus in Greenville,Greenville,Greenville,35.61266,-77.36635,US,90597.0,0,-77.36635,35.61266
367,More Zika patients reported in Calumpang,Calumpang,Calumpang,14.6228,121.0897,PH,15602.0,3,121.0897,14.6228
368,Zika symptoms spotted in Quisqueya,Quisqueya,Quisqueya,18.55542,-69.40814,DO,17694.0,0,-69.40814,18.55542
369,Rumors about Hepatitis D Spreading in Montreal have been Refuted,Montreal,Montréal,45.50884,-73.58781,CA,1762949.0,0,-73.58781,45.50884
370,Zika symptoms spotted in Fortaleza,Fortaleza,Fortaleza,-3.71722,-38.54306,BR,2400000.0,1,-38.54306,-3.71722
371,Rumors about Bronchitis spreading in Bundaberg have been refuted,Bundaberg,Bundaberg,-24.86621,152.3479,AU,50148.0,4,152.3479,-24.86621
372,Hepatitis A re-emerges in Stamford,Stamford,Stamford,41.05343,-73.53873,US,128874.0,0,-73.53873,41.05343
373,Schools in Huntington Closed Due to Rotavirus Outbreak,Huntington,Huntington,38.41925,-82.44515,US,48638.0,0,-82.44515,38.41925
374,Will Mad Cow Vaccine Help Bristol?,Bristol,Bristol,51.45523,-2.59665,GB,465866.0,2,-2.59665,51.45523
375,Chickenpox Comes to Stillwater,Stillwater,Stillwater,36.11561,-97.05837,US,48967.0,0,-97.05837,36.11561
376,The Spread of Meningitis in Imperial has been Confirmed,Imperial,Imperial,-13.05927,-76.35269,PE,32344.0,0,-76.35269,-13.05927
379,Case of Measles Reported in Springdale,Springdale,Springdale,36.18674,-94.12881,US,77859.0,0,-94.12881,36.18674
380,Norwalk Encounters Severe Symptoms of Malaria,Norwalk,Norwalk,33.90224,-118.08173,US,107140.0,0,-118.08173,33.90224
381,Zika arrives in Orange City,Orange,Orange,33.78779,-117.85311,US,140992.0,0,-117.85311,33.78779
382,Pilsen Encounters Severe Symptoms of Malaria,Pilsen,Pilsen,49.74747,13.37759,CZ,168733.0,2,13.37759,49.74747
383,Will Hepatitis B vaccine help La Paz?,La Paz,La Paz,-16.5,-68.15,BO,2004652.0,0,-68.15,-16.5
384,Zika Outbreak in Puducherry,Puducherry,Puducherry,11.93381,79.82979,IN,657209.0,7,79.82979,11.93381
385,More Zika patients reported in Carrollton,Carrollton,Carrollton,32.95373,-96.89028,US,133168.0,0,-96.89028,32.95373
386,Will Rabies vaccine help Tangier?,Tangier,Tangier,35.76727,-5.79975,MA,688356.0,2,-5.79975,35.76727
387,Zika symptoms spotted in Iquitos,Iquitos,Iquitos,-3.74912,-73.25383,PE,377609.0,0,-73.25383,-3.74912
388,West Nile Virus Exposure in Racine,Racine,Racine,42.72613,-87.78285,US,77742.0,0,-87.78285,42.72613
389,The Spread of Hepatitis E in Lansing has been Confirmed,Lansing,Lansing,42.73253,-84.55553,US,115056.0,0,-84.55553,42.73253
390,West Nile Virus Exposure in Alpharetta,Alpharetta,Alpharetta,34.07538,-84.29409,US,63693.0,0,-84.29409,34.07538
391,Pedro Juan Caballero Encounters Severe Symptoms of Pneumonia,Pedro Juan Caballero,Pedro Juan Caballero,-22.54722,-55.73333,PY,75109.0,1,-55.73333,-22.54722
392,More Zika patients reported in Melbourne,Melbourne,Melbourne,-37.814,144.96332,AU,4917750.0,4,144.96332,-37.814
393,Zika Troubles come to La Libertad,La Libertad,La Libertad,-2.233,-80.91039,EC,75881.0,0,-80.91039,-2.233
394,Herpes Vaccine is now Required in Mattoon,Mattoon,Mattoon,39.48309,-88.37283,US,18113.0,0,-88.37283,39.48309
395,Kent is infested with Rabies,Kent,Kent,47.38093,-122.23484,US,126952.0,0,-122.23484,47.38093
396,Zika symptoms spotted in Bonita Springs,Bonita Springs,Bonita Springs,26.33981,-81.7787,US,51704.0,0,-81.7787,26.33981
397,The Spread of Malaria in Brazzaville has been Confirmed,Brazzaville,Brazzaville,-4.26613,15.28318,CG,1284609.0,9,15.28318,-4.26613
398,More Zika patients reported in Fort Myers,Fort Myers,Fort Myers,26.62168,-81.84059,US,74013.0,0,-81.84059,26.62168
399,Zika spreads to Lewisville,Lewisville,Lewisville,33.04623,-96.99417,US,104039.0,0,-96.99417,33.04623
400,Ogden is infested with Gonorrhea,Ogden,Ogden,41.223,-111.97383,US,85444.0,0,-111.97383,41.223
401,Fort Hood Reports its First Zika Patient,Fort Hood,Fort Hood,31.13489,-97.77561,US,29589.0,0,-97.77561,31.13489
402,Huzhou Residents Receive Hepatitis B vaccine,Huzhou,Huzhou,30.8703,120.0933,CN,1015937.0,3,120.0933,30.8703
403,New medicine wipes out Rabies in Newburgh,Newburgh,Newburgh,41.50343,-74.01042,US,28290.0,0,-74.01042,41.50343
404,Iowa City Encounters Severe Symptoms of Rhinovirus,Iowa City,Iowa City,41.66113,-91.53017,US,74220.0,0,-91.53017,41.66113
405,Spike of Rabies Cases in Managua,Managua,Managua,12.13282,-86.2504,NI,973087.0,0,-86.2504,12.13282
406,Outbreak of Zika in Santa Elena,Santa Elena,Santa Elena,-2.22622,-80.85873,EC,42214.0,0,-80.85873,-2.22622
407,Mumps Hits Howard Beach,Howard Beach,Howard Beach,40.65788,-73.83625,US,26148.0,0,-73.83625,40.65788
408,The Spread of Gonorrhea in Reno has been Confirmed,Reno,Reno,39.52963,-119.8138,US,241445.0,0,-119.8138,39.52963
409,How to Avoid Rhinovirus in Plainfield,Plainfield,Plainfield,40.63371,-74.40737,US,51217.0,0,-74.40737,40.63371
410,Rumors about Varicella spreading in Carlsbad have been refuted,Carlsbad,Carlsbad,33.15809,-117.35059,US,114746.0,0,-117.35059,33.15809
411,Scranton authorities confirmed the spread of Gonorrhea,Scranton,Scranton,41.40916,-75.6649,US,77118.0,0,-75.6649,41.40916
412,Mad Cow Disease Disastrous to Brussels,Brussels,Brussels,50.85045,4.34878,BE,1019022.0,2,4.34878,50.85045
413,Zika spreads to Olinda,Olinda,Olinda,-8.00889,-34.85528,BR,366754.0,1,-34.85528,-8.00889
414,Hallandale Beach a Victim of Zika Outbreak,Hallandale Beach,Hallandale Beach,25.9812,-80.14838,US,39488.0,0,-80.14838,25.9812
415,Rhinovirus re-emerges in Storrs,Storrs,Storrs,41.80843,-72.24952,US,15344.0,0,-72.24952,41.80843
416,Germantown authorities confirmed the spread of Chickenpox,Germantown,Germantown,39.17316,-77.27165,US,86395.0,0,-77.27165,39.17316
417,Rumors about Rotavirus spreading in North Platte have been refuted,North Platte,North Platte,41.12389,-100.76542,US,24194.0,0,-100.76542,41.12389
418,Spike of Hepatitis C Cases in Golden,Golden,Golden,39.75554,-105.2211,US,20330.0,0,-105.2211,39.75554
419,Authorities are Worried about the Spread of Hepatitis D in Ganja,Ganja,Ganja,40.68278,46.36056,AZ,335600.0,11,46.36056,40.68278
420,Dengue Exposure in Kathmandu,Kathmandu,Kathmandu,27.70169,85.3206,NP,1442271.0,7,85.3206,27.70169
421,Tuberculosis has Arrived in Fairfield,Fairfield,Fairfield,38.24936,-122.03997,US,112970.0,0,-122.03997,38.24936
422,Outbreak of Zika in Kozhikode,Kozhikode,Kozhikode,11.24802,75.7804,IN,550440.0,7,75.7804,11.24802
423,Bronchitis Symptoms Spread all over Santa Fe,Santa Fe,Santa Fe,-31.64881,-60.70868,AR,391164.0,1,-60.70868,-31.64881
424,More Patients in Alexandria are Getting Diagnosed with Mumps,Alexandria,Alexandria,31.20176,29.91582,EG,5263542.0,10,29.91582,31.20176
425,Pneumonia Exposure in Alhambra,Alhambra,Alhambra,33.49838,-112.13432,US,127764.0,0,-112.13432,33.49838
426,Hepatitis C re-emerges in Damascus,Damascus,Damascus,33.5102,36.29128,SY,1569394.0,10,36.29128,33.5102
427,Lower Hospitalization in Pekanbaru after Rotavirus Vaccine becomes Mandatory,Pekanbaru,Pekanbaru,0.51667,101.44167,ID,1085000.0,3,101.44167,0.51667
429,Schools in Bentonville Closed Due to Hepatitis B Outbreak,Bentonville,Bentonville,36.37285,-94.20882,US,44499.0,0,-94.20882,36.37285
430,Hepatitis E Hits Hammond,Hammond,Hammond,41.58337,-87.50004,US,77614.0,0,-87.50004,41.58337
431,Schools in Bridgeton Closed Due to Mumps Outbreak,Bridgeton,Bridgeton,39.42734,-75.23408,US,25031.0,0,-75.23408,39.42734
432,Biloxi Residents Recieve Chlamydia vaccine,Biloxi,Biloxi,30.39603,-88.88531,US,45637.0,0,-88.88531,30.39603
433,Case of Mad Cow Disease Reported in Hilden,Hilden,Hilden,51.16818,6.93093,DE,56565.0,2,6.93093,51.16818
434,Rumors about Rabies Spreading in Khartoum have been Refuted,Khartoum,Khartoum,15.55177,32.53241,SD,1974647.0,10,32.53241,15.55177
435,Harare is infested with Pneumonia,Harare,Harare,-17.82772,31.05337,ZW,1542813.0,8,31.05337,-17.82772
436,Zika symptoms spotted in Sibu,Sibu,Sibu,2.3,111.81667,MY,198239.0,3,111.81667,2.3
437,Zika arrives in Quezon,Quezon,Quezon,7.73028,125.09889,PH,27212.0,3,125.09889,7.73028
438,More Patients in Crawfordsville are Getting Diagnosed with Rabies,Crawfordsville,Crawfordsville,40.04115,-86.87445,US,16024.0,0,-86.87445,40.04115
439,Spike of Hepatitis B Cases in Greenville,Greenville,Greenville,35.61266,-77.36635,US,90597.0,0,-77.36635,35.61266
440,Authorities are Worried about the Spread of Hepatitis D in Akron,Akron,Akron,41.08144,-81.51901,US,197542.0,0,-81.51901,41.08144
441,More Zika patients reported in Nuevo Laredo,Nuevo Laredo,Nuevo Laredo,27.47629,-99.51639,MX,373725.0,0,-99.51639,27.47629
442,Bronchitis Keeps Spreading in San Mateo,San Mateo,San Mateo,14.6982,121.1236,PH,134327.0,3,121.1236,14.6982
443,Zika arrives in Boca Raton,Boca Raton,Boca Raton,26.35869,-80.0831,US,93235.0,0,-80.0831,26.35869
444,Bradenton Experiences Zika Troubles,Bradenton,Bradenton,27.49893,-82.57482,US,54437.0,0,-82.57482,27.49893
445,Chlamydia Symptoms Spread all over University City,University City,University City,38.65588,-90.30928,US,35058.0,0,-90.30928,38.65588
446,Wisconsin Rapids Patient in Critical Condition after Contracting Chickenpox,Wisconsin Rapids,Wisconsin Rapids,44.38358,-89.81735,US,17897.0,0,-89.81735,44.38358
447,Zika spreads to Kissimmee,Kissimmee,Kissimmee,28.30468,-81.41667,US,69152.0,0,-81.41667,28.30468
448,Herpes Symptoms Spread all over Fremont,Fremont,Fremont,37.54827,-121.98857,US,232206.0,0,-121.98857,37.54827
449,Spike of Pneumonia Cases in The Bronx,The Bronx,The Bronx,40.84985,-73.86641,US,1385108.0,0,-73.86641,40.84985
450,Authorities are Worried about the Spread of Hepatitis D in North Bay,North Bay,North Bay,46.3168,-79.46633,CA,50396.0,0,-79.46633,46.3168
451,The Spread of Herpes in Baku has been Confirmed,Baku,Baku,40.37767,49.89201,AZ,1116513.0,11,49.89201,40.37767
452,Will Measles vaccine help Sochi?,Sochi,Sochi,43.59917,39.72569,RU,327608.0,11,39.72569,43.59917
453,Tuberculosis Symptoms Spread all over Caguas,Caguas,Caguas,18.23412,-66.0485,PR,86804.0,0,-66.0485,18.23412
454,HIV has Arrived in Tacoma,Tacoma,Tacoma,47.25288,-122.44429,US,207948.0,0,-122.44429,47.25288
455,Malaria re-emerges in Nashua,Nashua,Nashua,42.76537,-71.46757,US,87970.0,0,-71.46757,42.76537
456,Arvada is infested with Syphilis,Arvada,Arvada,39.80276,-105.08748,US,115368.0,0,-105.08748,39.80276
457,Spike of Syphilis Cases in West Monroe,Monroe,Monroe,32.50931,-92.1193,US,49598.0,0,-92.1193,32.50931
458,More Zika patients reported in Ribeirao Preto,Ribeirao Preto,Ribeirão Preto,-21.1775,-47.81028,BR,711825.0,1,-47.81028,-21.1775
460,Deerfield tests new cure for Measles,Deerfield,Deerfield,42.17114,-87.84451,US,19019.0,0,-87.84451,42.17114
461,Contaminated Meat Brings Trouble for Bonn Farmers,Bonn,Bonn,50.73438,7.09549,DE,330579.0,2,7.09549,50.73438
463,Hepatitis A re-emerges in Foster City,Foster City,Foster City,37.55855,-122.27108,US,33477.0,0,-122.27108,37.55855
464,How to Avoid Tuberculosis in Santa Monica,Santa Monica,Santa Monica,34.01949,-118.49138,US,93220.0,0,-118.49138,34.01949
465,Zika reported in Fort Pierce,Fort Pierce,Fort Pierce,27.44671,-80.32561,US,44484.0,0,-80.32561,27.44671
466,Authorities are Worried about the Spread of Syphilis in Pyongyang,Pyongyang,Pyongyang,39.03385,125.75432,KP,3222000.0,3,125.75432,39.03385
467,Zika spreads to Winter Park,Winter Park,Winter Park,28.6,-81.33924,US,29943.0,0,-81.33924,28.6
468,Durango is infested with Hepatitis B,Durango,Durango,43.17124,-2.6338,ES,28229.0,2,-2.6338,43.17124
469,Hepatitis A has not Left Staten Island,Staten Island,Staten Island,40.56233,-74.13986,US,468730.0,0,-74.13986,40.56233
470,Mpika authorities confirmed the spread of Chikungunya,Mpika,Mpika,-11.83431,31.45287,ZM,28445.0,8,31.45287,-11.83431
471,Gladstone Encounters Severe Symptoms of Dengue,Gladstone,Gladstone,-23.84852,151.25775,AU,30489.0,4,151.25775,-23.84852
472,Mad Cow Disease Hits London,London,London,51.50853,-0.12574,GB,8961989.0,2,-0.12574,51.50853
473,New Milford Patient in Critical Condition after Contracting Respiratory Syncyti,New Milford,New Milford,40.9351,-74.01903,US,16801.0,0,-74.01903,40.9351
474,More people in Palo Alto are infected with HIV every year,Palo Alto,Palo Alto,37.44188,-122.14302,US,66853.0,0,-122.14302,37.44188
475,HIV Symptoms Spread all over Hinthada,Hinthada,Hinthada,17.64944,95.45705,MM,134947.0,3,95.45705,17.64944
476,Zika symptoms spotted in Quito,Quito,Quito,-0.22985,-78.52495,EC,2781641.0,0,-78.52495,-0.22985
477,Vineland authorities confirmed the spread of Chlamydia,Vineland,Vineland,39.48623,-75.02573,US,60818.0,0,-75.02573,39.48623
478,"Sulu, Zamboanga brace for Zika",Zamboanga,Zamboanga,6.91028,122.07389,PH,457623.0,3,122.07389,6.91028
479,More Zika patients reported in Custodia,Custodia,Custódia,-8.0875,-37.64306,BR,18107.0,1,-37.64306,-8.0875
480,Tupelo Residents Recieve Syphilis vaccine,Tupelo,Tupelo,34.25807,-88.70464,US,35680.0,0,-88.70464,34.25807
482,Spanish Flu Outbreak in Lisbon,Lisbon,Lisbon,38.71667,-9.13333,PT,517802.0,2,-9.13333,38.71667
483,Spanish Flu Spreading through Madrid,Madrid,Madrid,40.4165,-3.70256,ES,3255944.0,2,-3.70256,40.4165
484,Barcelona Struck by Spanish Flu,Barcelona,Barcelona,41.38879,2.15899,ES,1620343.0,2,2.15899,41.38879
485,The Spread of Dengue in Yakima has been Confirmed,Yakima,Yakima,46.60207,-120.5059,US,93701.0,0,-120.5059,46.60207
486,Tuberculosis Hits Luanda,Luanda,Luanda,-8.83682,13.23432,AO,2776168.0,9,13.23432,-8.83682
487,Will West Nile Virus vaccine help Dumai?,Dumai,Dumai,1.66711,101.44316,ID,143760.0,3,101.44316,1.66711
488,Rumors about Chlamydia spreading in Redmond have been refuted,Redmond,Redmond,47.67399,-122.12151,US,60598.0,0,-122.12151,47.67399
489,Case of Varicella Reported in Concord,Concord,Concord,37.97798,-122.03107,US,128667.0,0,-122.03107,37.97798
490,Zika virus case reported in Rockland,Rockland,Rockland,42.13066,-70.91616,US,17982.0,0,-70.91616,42.13066
491,Zika investigators coming to Mankato,Mankato,Mankato,44.15906,-94.00915,US,41044.0,0,-94.00915,44.15906
492,Toms River Encounters Severe Symptoms of Respiratory Syncytial Virus,Toms River,Toms River,39.95373,-74.19792,US,88791.0,0,-74.19792,39.95373
493,The Spread of Malaria in Zanzibar has been Confirmed,Zanzibar,Zanzibar,-6.16394,39.19793,TZ,403658.0,6,39.19793,-6.16394
494,Malaria Outbreak Hits Zanzibar's Tourist Industry,Zanzibar,Zanzibar,-6.16394,39.19793,TZ,403658.0,6,39.19793,-6.16394
495,Tourist Perishes from Malaria in Arusha,Arusha,Arusha,-3.36667,36.68333,TZ,341136.0,6,36.68333,-3.36667
496,Herpes Symptoms Spread all over New Kingston,New Kingston,New Kingston,18.00747,-76.78319,JM,583958.0,0,-76.78319,18.00747
497,More people in Yokohama are infected with Norovirus every year,Yokohama,Yokohama,35.43333,139.65,JP,3761630.0,3,139.65,35.43333
498,More people in Kitwe are infected with Respiratory Syncytial Virus every year,Kitwe,Kitwe,-12.80243,28.21323,ZM,400914.0,8,28.21323,-12.80243
499,Hepatitis D Keeps Spreading in Bismarck,Bismarck,Bismarck,46.80833,-100.78374,US,71167.0,0,-100.78374,46.80833
500,Varicella Outbreak in Minot,Minot,Minot,48.23251,-101.29627,US,49450.0,0,-101.29627,48.23251
501,Malaria has Arrived in Terrebonne,Terrebonne,Terrebonne,45.70004,-73.64732,CA,111575.0,0,-73.64732,45.70004
502,Chikungunya Keeps Spreading in North Vancouver,North Vancouver,North Vancouver,49.31636,-123.06934,CA,48000.0,0,-123.06934,49.31636
503,Authorities are Worried about the Spread of Chickenpox in Hemet,Hemet,Hemet,33.74761,-116.97307,US,83861.0,0,-116.97307,33.74761
506,Rumors about Hepatitis C spreading in Darien have been refuted,Darien,Darien,41.75198,-87.97395,US,22256.0,0,-87.97395,41.75198
507,The Spread of West Nile Virus in Fairfield has been Confirmed,Fairfield,Fairfield,38.24936,-122.03997,US,112970.0,0,-122.03997,38.24936
508,Princeton Encounters Severe Symptoms of Dengue,Princeton,Princeton,25.53844,-80.40894,US,39308.0,0,-80.40894,25.53844
509,Norovirus Keeps Spreading in Copenhagen,Copenhagen,Copenhagen,55.67594,12.56553,DK,1153615.0,2,12.56553,55.67594
510,Wuhan is infested with Varicella,Wuhan,Wuhan,30.58333,114.26667,CN,10392693.0,3,114.26667,30.58333
511,Zika spreads to San Luis Potosi,San Luis Potosi,San Luis Potosí,22.14982,-100.97916,MX,722772.0,0,-100.97916,22.14982
513,Spike of Norovirus Cases in Canberra,Canberra,Canberra,-35.28346,149.12807,AU,367752.0,4,149.12807,-35.28346
514,Zika Troubles come to Greater Noida,Greater Noida,Greater Noida,28.49615,77.53601,IN,293908.0,7,77.53601,28.49615
515,Lower Hospitalization in Palm Springs after Hepatitis A Vaccine becomes Mandato,Palm Springs,Palm Springs,33.8303,-116.54529,US,47371.0,0,-116.54529,33.8303
517,Outbreak of Zika in Leesburg,Leesburg,Leesburg,39.11566,-77.5636,US,51209.0,0,-77.5636,39.11566
518,Authorities are Worried about the Spread of Tuberculosis in Cantu,Cantu,Cantù,45.74096,9.13084,IT,39917.0,2,9.13084,45.74096
520,New medicine wipes out HIV in Kihei,Kihei,Kīhei,20.76462,-156.44578,US,20881.0,-1,-156.44578,20.76462
521,Sangre Grande Residents Recieve Gonorrhea vaccine,Sangre Grande,Sangre Grande,10.58705,-61.13008,TT,15968.0,0,-61.13008,10.58705
522,Outbreak of Zika in Colombo,Colombo,Colombo,6.93548,79.84868,LK,648034.0,7,79.84868,6.93548
523,Will Rotavirus vaccine help Addis Ababa?,Addis Ababa,Addis Ababa,9.02497,38.74689,ET,2757729.0,10,38.74689,9.02497
524,Stony Brook University experts discuss Zika virus,University,University,28.07389,-82.43902,US,41163.0,0,-82.43902,28.07389
525,Lower Hospitalization in Janesville after Varicella Vaccine becomes Mandatory,Janesville,Janesville,42.68279,-89.01872,US,64123.0,0,-89.01872,42.68279
526,Rabies Outbreak in Altus,Altus,Altus,34.63813,-99.33398,US,19214.0,0,-99.33398,34.63813
527,Miami resident suggests Zika precautions,Miami,Miami,25.77427,-80.19366,US,441003.0,0,-80.19366,25.77427
528,Zika Troubles come to Jaen,Jaen,Jaen,15.3275,120.9192,PH,39700.0,3,120.9192,15.3275
529,Hepatitis B Exposure in Edinburgh,Edinburgh,Edinburgh,55.95206,-3.19648,GB,506520.0,2,-3.19648,55.95206
530,Zika case reported in Reynosa,Reynosa,Reynosa,26.08061,-98.28835,MX,589466.0,0,-98.28835,26.08061
531,Schools in Tulare Closed Due to Mumps Outbreak,Tulare,Tulare,36.20773,-119.34734,US,62315.0,0,-119.34734,36.20773
532,More Zika patients reported in Chennai,Chennai,Chennai,13.08784,80.27847,IN,4681087.0,7,80.27847,13.08784
533,Hepatitis D Keeps Spreading in Danvers,Danvers,Danvers,42.57509,-70.93005,US,26493.0,0,-70.93005,42.57509
534,Authorities a Miami,Miami,Miami,25.77427,-80.19366,US,441003.0,0,-80.19366,25.77427
535,Zika case reported in Medellin,Medellin,Medellín,6.25184,-75.56359,CO,1999979.0,0,-75.56359,6.25184
536,Spike of Tuberculosis Cases in Albuquerque,Albuquerque,Albuquerque,35.08449,-106.65114,US,559121.0,0,-106.65114,35.08449
537,More people in Cranford are infected with Hepatitis A every year,Cranford,Cranford,40.65844,-74.29959,US,22627.0,0,-74.29959,40.65844
538,West Nile Virus Hits Monroe,Monroe,Monroe,32.50931,-92.1193,US,49598.0,0,-92.1193,32.50931
539,Pneumonia Outbreak in Springville,Springville,Springville,40.16523,-111.61075,US,32286.0,0,-111.61075,40.16523
540,Zika arrives in San Onofre,San Onofre,San Onofre,9.73586,-75.52626,CO,32957.0,0,-75.52626,9.73586
541,Lung Cancer Rates Increasing in Moscow,Moscow,Moscow,55.75222,37.61556,RU,10381222.0,-1,37.61556,55.75222
542,Rumors about Rotavirus Spreading in Joliet have been Refuted,Joliet,Joliet,41.52519,-88.0834,US,147861.0,0,-88.0834,41.52519
543,More Zika patients reported in Chanthaburi,Chanthaburi,Chanthaburi,12.60961,102.10447,TH,99819.0,3,102.10447,12.60961
544,Lawrenceville is infested with Dengue,Lawrenceville,Lawrenceville,33.95621,-83.98796,US,30493.0,0,-83.98796,33.95621
545,Zika Reported in Ciudad Acuna,Ciudad Acuna,Ciudad Acuña,29.32322,-100.95217,MX,134233.0,0,-100.95217,29.32322
546,Zika case reported in Limoeiro,Limoeiro,Limoeiro,-7.87472,-35.45028,BR,42328.0,1,-35.45028,-7.87472
547,Ibadan tests new cure for Malaria,Ibadan,Ibadan,7.37756,3.90591,NG,3649000.0,9,3.90591,7.37756
548,Gonorrhea has Arrived in Avon Lake,Avon Lake,Avon Lake,41.50532,-82.0282,US,23453.0,0,-82.0282,41.50532
549,Pneumonia has not Left Kinshasa,Kinshasa,Kinshasa,-4.32758,15.31357,CD,7785965.0,9,15.31357,-4.32758
550,Respiratory Syncytial Virus Hits Henderson,Henderson,Henderson,36.0397,-114.98194,US,285667.0,0,-114.98194,36.0397
551,More Zika patients reported in Lakeland,Lakeland,Lakeland,28.03947,-81.9498,US,104401.0,0,-81.9498,28.03947
552,Malaria Vaccine is now Required in Winona,Winona,Winona,44.04996,-91.63932,US,27094.0,0,-91.63932,44.04996
553,More Patients in Canton are Getting Diagnosed with Norovirus,Canton,Canton,42.30865,-83.48216,US,86825.0,0,-83.48216,42.30865
554,Ronkonkoma is infested with Chickenpox,Ronkonkoma,Ronkonkoma,40.81538,-73.11233,US,19082.0,0,-73.11233,40.81538
555,Kedougou tests new cure for Hepatitis C,Kedougou,Kédougou,12.55561,-12.18076,SN,17922.0,5,-12.18076,12.55561
556,Gonorrhea Exposure in Norwalk,Norwalk,Norwalk,33.90224,-118.08173,US,107140.0,0,-118.08173,33.90224
557,How to Avoid Rhinovirus in Medford,Medford,Medford,42.32652,-122.87559,US,79805.0,0,-122.87559,42.32652
558,Hepatitis D Symptoms Spread all over Evansville,Evansville,Evansville,37.97476,-87.55585,US,119943.0,0,-87.55585,37.97476
559,New medicine wipes out Herpes in Bossier City,Bossier City,Bossier City,32.51599,-93.73212,US,68094.0,0,-93.73212,32.51599
560,Pneumonia Exposure in San Jose,San Jose,San Jose,37.33939,-121.89496,US,1026908.0,0,-121.89496,37.33939
561,Authorities are Worried about the Spread of Mad Cow Disease in Edinburgh,Edinburgh,Edinburgh,55.95206,-3.19648,GB,506520.0,2,-3.19648,55.95206
562,Duluth Patient in Critical Condition after Contracting Rotavirus,Duluth,Duluth,46.78327,-92.10658,US,86110.0,0,-92.10658,46.78327
564,Norfolk tests new cure for Herpes,Norfolk,Norfolk,36.84681,-76.28522,US,246393.0,0,-76.28522,36.84681
565,More Zika patients reported in Botucatu,Botucatu,Botucatu,-22.88583,-48.445,BR,148130.0,1,-48.445,-22.88583
566,Manassas Encounters Severe Symptoms of Measles,Manassas,Manassas,38.75095,-77.47527,US,41764.0,0,-77.47527,38.75095
567,Fayetteville authorities confirmed the spread of HIV,Fayetteville,Fayetteville,35.05266,-78.87836,US,201963.0,0,-78.87836,35.05266
568,Varicella Exposure in Cambridge,Cambridge,Cambridge,52.2,0.11667,GB,145674.0,2,0.11667,52.2
569,Hepatitis A Vaccine is now Required in Fukushima,Fukushima,Fukushima,37.75,140.46667,JP,294237.0,3,140.46667,37.75
570,Zika Outbreak in South Miami,Miami,Miami,25.77427,-80.19366,US,441003.0,0,-80.19366,25.77427
571,Hepatitis D Symptoms Spread all over North Bethesda,North Bethesda,North Bethesda,39.04455,-77.11887,US,43828.0,0,-77.11887,39.04455
572,Panama City's first Zika related death,Panama City,Panama City,30.15946,-85.65983,US,38286.0,0,-85.65983,30.15946
573,West Nile Virus has Arrived in Dongguan,Dongguan,Dongguan,23.01797,113.74866,CN,9644871.0,3,113.74866,23.01797
574,Zika arrives in Belmopan,Belmopan,Belmopan,17.25,-88.76667,BZ,13381.0,0,-88.76667,17.25
575,Zika seminars in Yuma County,Yuma,Yuma,32.72532,-114.6244,US,94139.0,0,-114.6244,32.72532
576,Rumors about Hepatitis E Spreading in Morristown have been Refuted,Morristown,Morristown,36.21398,-83.29489,US,29478.0,0,-83.29489,36.21398
577,Mumps Outbreak in Joplin,Joplin,Joplin,37.08423,-94.51328,US,51818.0,0,-94.51328,37.08423
579,Authorities are Worried about the Spread of Mumps in Corona,Corona,Corona,33.87529,-117.56644,US,164226.0,0,-117.56644,33.87529
580,Schools in Danville Closed Due to Tuberculosis Outbreak,Danville,Danville,37.82159,-121.99996,US,44400.0,0,-121.99996,37.82159
581,Outbreak of Zika in Alvorada,Alvorada,Alvorada,-29.9904,-51.0781,BR,211352.0,1,-51.0781,-29.9904
582,Marquette tests new cure for Hepatitis A,Marquette,Marquette,46.54354,-87.39542,US,21297.0,0,-87.39542,46.54354
583,Norovirus Vaccine is now Required in Anaheim,Anaheim,Anaheim,33.83529,-117.9145,US,350742.0,0,-117.9145,33.83529
584,Zika Outbreak in Manaus,Manaus,Manaus,-3.10194,-60.025,BR,2219580.0,-1,-60.025,-3.10194
585,Zika spreads to Caucasia,Caucasia,Caucasia,7.98654,-75.19349,CO,58034.0,0,-75.19349,7.98654
586,Case of Malaria Reported in Aurora,Aurora,Aurora,39.72943,-104.83192,US,359407.0,0,-104.83192,39.72943
587,Manchester Residents Recieve Influenza vaccine,Manchester,Manchester,53.48095,-2.23743,GB,395515.0,2,-2.23743,53.48095
588,Zika spreads to Kamphaeng Phet,Kamphaeng Phet,Kamphaeng Phet,16.48344,99.52153,TH,58787.0,3,99.52153,16.48344
589,Rotavirus Vaccine is now Required in Labasa,Labasa,Labasa,-16.4332,179.36451,FJ,27949.0,12,179.36451,-16.4332
590,The Spread of Hepatitis E in Fargo has been Confirmed,Fargo,Fargo,46.87719,-96.7898,US,118523.0,0,-96.7898,46.87719
591,Zika Outbreak in Mexicali,Mexicali,Mexicali,32.62781,-115.45446,MX,1032686.0,0,-115.45446,32.62781
592,West Nile Virus Keeps Spreading in Hauppauge,Hauppauge,Hauppauge,40.82565,-73.20261,US,20882.0,0,-73.20261,40.82565
593,Bronchitis Keeps Spreading in Hayward,Hayward,Hayward,37.66882,-122.0808,US,158289.0,0,-122.0808,37.66882
596,Zika spreads to Plant City,Plant City,Plant City,28.01888,-82.11469,US,37406.0,0,-82.11469,28.01888
597,Chlamydia Exposure in Sanaa,Sanaa,Sanaa,15.35472,44.20667,YE,1937451.0,10,44.20667,15.35472
598,Zika Reported in North Miami Beach,North Miami Beach,North Miami Beach,25.93315,-80.16255,US,43971.0,0,-80.16255,25.93315
599,More Patients in Kensington are Getting Diagnosed with Varicella,Kensington,Kensington,40.64621,-73.97069,US,39120.0,0,-73.97069,40.64621
601,Case of West Nile Virus Reported in Riverside,Riverside,Riverside,33.95335,-117.39616,US,322424.0,0,-117.39616,33.95335
602,Northfield Encounters Severe Symptoms of Herpes,Northfield,Northfield,44.4583,-93.1616,US,20380.0,0,-93.1616,44.4583
603,The Spread of Respiratory Syncytial Virus in Monroe has been Confirmed,Monroe,Monroe,32.50931,-92.1193,US,49598.0,0,-92.1193,32.50931
604,How to Avoid Hepatitis B in Trenton,Trenton,Trenton,40.21705,-74.74294,US,84225.0,0,-74.74294,40.21705
605,Zika Reported in Ilopango,Ilopango,Ilopango,13.70167,-89.10944,SV,38890.0,0,-89.10944,13.70167
606,Barstow Patient in Critical Condition after Contracting Herpes,Barstow,Barstow,34.89859,-117.02282,US,23692.0,0,-117.02282,34.89859
607,Hepatitis D Exposure in Aswan,Aswan,Aswan,24.09082,32.89942,EG,379774.0,10,32.89942,24.09082
608,Will Gonorrhea vaccine help East Moline?,East Moline,East Moline,41.50087,-90.4443,US,21350.0,0,-90.4443,41.50087
609,New medicine wipes out Influenza in Redlands,Redlands,Redlands,34.05557,-117.18254,US,71035.0,0,-117.18254,34.05557
610,How to Avoid Contaminated Meat when Visiting Basel,Basel,Basel,47.55839,7.57327,CH,164488.0,2,7.57327,47.55839
611,More Zika patients reported in Kampong Speu,Kampong Speu,Kampong Speu,11.45332,104.52085,KH,33231.0,3,104.52085,11.45332
612,Alameda Residents Recieve Rabies vaccine,Alameda,Alameda,37.77099,-122.26087,US,78630.0,0,-122.26087,37.77099
613,Mad Cow Disease Detected in Lyon,Lyon,Lyon,45.74846,4.84671,FR,522969.0,2,4.84671,45.74846
614,Memphis Encounters Severe Symptoms of Swine Flu,Memphis,Memphis,35.14953,-90.04898,US,633104.0,0,-90.04898,35.14953
615,Zika Troubles come to Delray Beach,Delray Beach,Delray Beach,26.46146,-80.07282,US,66255.0,0,-80.07282,26.46146
616,How to Avoid Chikungunya in Hampton,Hampton,Hampton,37.02987,-76.34522,US,136454.0,0,-76.34522,37.02987
617,Zika Reported in Sao Jose,Sao Jose,São José,-28.21171,-49.1632,BR,200000.0,1,-49.1632,-28.21171
618,Case of Norovirus Reported in Stratford,Stratford,Stratford,41.18454,-73.13317,US,51384.0,0,-73.13317,41.18454
619,How to Avoid Hepatitis E in South Bend,South Bend,South Bend,41.68338,-86.25001,US,101516.0,0,-86.25001,41.68338
620,Hepatitis C Outbreak in Bethlehem,Bethlehem,Bethlehem,-28.23078,28.30707,ZA,83654.0,8,28.30707,-28.23078
621,Davenport is infested with Dengue,Davenport,Davenport,41.52364,-90.57764,US,102582.0,0,-90.57764,41.52364
622,Rumors about Swine Flu spreading in Suzhou have been refuted,Suzhou,Suzhou,31.30408,120.59538,CN,6715559.0,3,120.59538,31.30408
623,Malaria Vaccine is now Required in Elyria,Elyria,Elyria,41.36838,-82.10765,US,53775.0,0,-82.10765,41.36838
625,Case of Swine Flu Reported in Tbilisi,Tbilisi,Tbilisi,41.69411,44.83368,GE,1049498.0,11,44.83368,41.69411
628,Influenza Keeps Spreading in Suffolk,Suffolk,Suffolk,36.72836,-76.58496,US,88161.0,0,-76.58496,36.72836
629,More people in Allentown are infected with Chlamydia every year,Allentown,Allentown,40.60843,-75.49018,US,120207.0,0,-75.49018,40.60843
630,Mad Cow Disease re-emerges in Bedford,Bedford,Bedford,52.13459,-0.46632,GB,106940.0,2,-0.46632,52.13459
631,Authorities are Worried about the Spread of Hepatitis B in Yiwu,Yiwu,Yiwu,29.31506,120.07676,CN,1481384.0,3,120.07676,29.31506
632,Zika Outbreak in Yurimaguas,Yurimaguas,Yurimaguas,-5.90181,-76.12234,PE,41827.0,0,-76.12234,-5.90181
633,Dengue Outbreak in Easton,Easton,Easton,40.68843,-75.22073,US,26915.0,0,-75.22073,40.68843
634,Varicella has Arrived in Milton,Milton,Milton,43.51681,-79.88294,CA,132979.0,0,-79.88294,43.51681
635,New medicine wipes out Meningitis in Sevilla,Sevilla,Sevilla,37.38283,-5.97317,ES,684234.0,2,-5.97317,37.38283
636,Authorities are Worried about the Spread of Varicella in Clovis,Clovis,Clovis,36.82523,-119.70292,US,104180.0,0,-119.70292,36.82523
637,More Zika patients reported in Fort Worth,Fort Worth,Fort Worth,32.72541,-97.32085,US,918915.0,0,-97.32085,32.72541
638,Zika symptoms spotted in Boynton Beach,Boynton Beach,Boynton Beach,26.52535,-80.06643,US,73966.0,0,-80.06643,26.52535
639,Outbreak of Zika in Portoviejo,Portoviejo,Portoviejo,-1.05458,-80.45445,EC,321800.0,0,-80.45445,-1.05458
640,Influenza Exposure in Muscat,Muscat,Muscat,23.58413,58.40778,OM,797000.0,-1,58.40778,23.58413
641,Rumors about Rabies spreading in Jerusalem have been refuted,Jerusalem,Jerusalem,31.76904,35.21633,IL,971800.0,10,35.21633,31.76904
642,More Zika patients reported in Indang,Indang,Indang,14.19528,120.87694,PH,41159.0,3,120.87694,14.19528
643,Suva authorities confirmed the spread of Rotavirus,Suva,Suva,-18.13683,178.42531,FJ,77366.0,12,178.42531,-18.13683
644,More Zika patients reported in Bella Vista,Bella Vista,Bella Vista,18.45539,-69.9454,DO,175683.0,0,-69.9454,18.45539
645,Zika Outbreak in Wichita Falls,Wichita Falls,Wichita Falls,33.91371,-98.49339,US,104710.0,0,-98.49339,33.91371
